{"variable":"표층수온(℃)","note":"국립수산과학원 실시간 연안 관측 실측 평균. 좌표는 지역명 기반 근사값.","count":46,"stations":[{"name":"백령도","lon":124.68,"lat":37.96,"sea":"서해","mean":12.75,"monthly":[5.6,4.37,5.73,8.2,11.19,14.95,19.5,22.1,21.18,17.49,13.42,8.94],"n":86733},{"name":"인천 자월도","lon":126.32,"lat":37.26,"sea":"서해","mean":13.99,"monthly":[5.05,3.31,4.6,8.05,12.16,16.55,21.29,25.28,24.51,20.89,15.92,9.43],"n":83608},{"name":"태안 파도리","lon":126.14,"lat":36.73,"sea":"서해","mean":14.14,"monthly":[5.72,4.36,6.18,9.34,12.85,17.14,22.49,24.47,22.87,19.32,14.92,9.54],"n":86363},{"name":"인천 장봉도","lon":126.34,"lat":37.53,"sea":"서해","mean":14.23,"monthly":[2.81,2.17,5.09,9.88,14.49,19.39,23.8,26.54,24.75,19.94,14.28,7.08],"n":85264},{"name":"보령 삽시도","lon":126.42,"lat":36.28,"sea":"서해","mean":14.78,"monthly":[5.7,4.33,5.8,9.3,13.45,18.49,23.84,25.92,24.3,19.92,15.05,9.28],"n":82928},{"name":"태안 안면도","lon":126.33,"lat":36.48,"sea":"서해","mean":14.97,"monthly":[5.14,4.05,6.09,10.2,14.46,19.23,24.65,26.93,24.83,20.19,14.94,9.13],"n":85626},{"name":"고성 봉포","lon":128.47,"lat":38.28,"sea":"동해","mean":15.01,"monthly":[8.82,7.45,9.72,11.06,13.76,17.54,21.14,22.55,22.44,20.09,15.97,13.52],"n":44666},{"name":"진도 불도","lon":126.16,"lat":34.42,"sea":"서해","mean":15.02,"monthly":[9.5,8.27,8.92,11.58,14.06,16.49,19.25,21.51,22.42,20.41,16.33,12.27],"n":76510},{"name":"진도 조도","lon":126.1,"lat":34.24,"sea":"남해","mean":15.29,"monthly":[10.01,8.59,9.21,11.66,14.16,16.77,19.1,21.31,22.32,20.23,16.15,12.68],"n":84442},{"name":"양양","lon":128.66,"lat":38.02,"sea":"동해","mean":15.38,"monthly":[9.45,7.37,8.8,10.69,13.51,17.51,21.3,22.64,23.37,20.2,16.72,13.04],"n":81474},{"name":"서천 마량","lon":126.52,"lat":36.13,"sea":"서해","mean":15.52,"monthly":[6.19,4.79,5.99,10.0,14.54,19.93,25.34,27.27,24.78,20.37,15.46,10.25],"n":84796},{"name":"군산 비안도","lon":126.43,"lat":35.78,"sea":"서해","mean":15.61,"monthly":[5.96,4.83,6.44,10.72,15.2,20.47,25.58,27.51,25.02,20.3,15.45,9.65],"n":77990},{"name":"부안 위도","lon":126.3,"lat":35.62,"sea":"서해","mean":15.68,"monthly":[6.03,5.04,6.39,10.54,15.18,20.1,24.86,27.1,25.12,20.54,15.66,10.03],"n":83158},{"name":"삼척","lon":129.17,"lat":37.44,"sea":"동해","mean":15.73,"monthly":[12.16,10.18,10.14,10.91,12.26,15.52,19.92,22.16,23.92,20.39,17.5,14.5],"n":81202},{"name":"강릉","lon":128.95,"lat":37.77,"sea":"동해","mean":15.85,"monthly":[11.4,8.45,9.36,11.1,12.84,17.06,20.95,22.78,23.57,20.4,17.14,13.86],"n":79943},{"name":"영광 안마도","lon":126.03,"lat":35.36,"sea":"서해","mean":15.85,"monthly":[5.73,4.92,6.73,10.97,15.44,20.2,24.81,27.3,25.56,20.96,15.89,9.72],"n":79652},{"name":"완도 노화도","lon":126.55,"lat":34.17,"sea":"남해","mean":16.0,"monthly":[9.28,8.42,9.79,12.57,15.51,18.21,20.72,23.07,23.72,21.3,16.8,12.18],"n":87062},{"name":"신안 흑산도","lon":125.43,"lat":34.68,"sea":"서해","mean":16.02,"monthly":[10.04,8.31,8.61,10.21,12.68,15.82,21.84,24.09,21.97,18.93,15.48,12.62],"n":32846},{"name":"완도 청산도","lon":126.85,"lat":34.17,"sea":"남해","mean":16.14,"monthly":[10.57,9.91,11.07,12.98,14.98,17.16,20.27,23.01,23.87,20.64,16.3,12.57],"n":86839},{"name":"목포","lon":126.38,"lat":34.78,"sea":"서해","mean":16.29,"monthly":[6.66,5.98,8.29,12.57,16.72,20.73,23.82,26.16,25.36,21.58,16.21,10.19],"n":86558},{"name":"울산 간절곶","lon":129.36,"lat":35.36,"sea":"동해","mean":16.49,"monthly":[12.92,12.07,12.32,13.24,14.58,16.88,18.58,21.56,23.92,21.49,17.27,14.62],"n":84136},{"name":"여수 신월","lon":127.7,"lat":34.73,"sea":"남해","mean":16.53,"monthly":[6.14,6.46,9.93,14.53,18.51,22.22,24.72,26.71,25.84,21.52,15.63,9.33],"n":83066},{"name":"완도 동백","lon":126.75,"lat":34.31,"sea":"남해","mean":16.57,"monthly":[9.78,9.15,10.57,13.31,16.11,18.92,21.54,24.1,24.47,21.5,16.79,12.28],"n":86690},{"name":"영덕","lon":129.4,"lat":36.42,"sea":"동해","mean":16.6,"monthly":[12.48,11.1,11.38,12.54,14.28,17.35,19.53,21.96,24.18,21.33,17.97,14.62],"n":83360},{"name":"고흥 소록도","lon":127.28,"lat":34.52,"sea":"남해","mean":16.77,"monthly":[8.27,7.99,10.01,13.39,16.71,20.45,23.19,25.46,25.26,21.99,16.73,11.32],"n":85792},{"name":"통영 한산도","lon":128.48,"lat":34.78,"sea":"남해","mean":16.91,"monthly":[11.81,11.13,11.62,13.26,15.36,18.21,21.3,24.35,24.71,21.17,17.49,14.28],"n":83138},{"name":"울진 후포","lon":129.45,"lat":36.68,"sea":"동해","mean":17.0,"monthly":[12.16,10.85,11.35,12.84,14.74,18.8,21.32,24.34,24.01,21.01,17.65,14.27],"n":84271},{"name":"여수 금오도","lon":127.78,"lat":34.53,"sea":"남해","mean":17.14,"monthly":[9.75,9.25,10.58,13.51,16.73,20.1,23.7,25.92,25.12,21.84,17.22,12.55],"n":85317},{"name":"부산 다대포","lon":128.97,"lat":35.05,"sea":"남해","mean":17.14,"monthly":[10.61,10.37,11.65,13.87,16.09,19.57,23.18,25.7,24.44,20.94,16.44,12.36],"n":85534},{"name":"독도","lon":131.87,"lat":37.24,"sea":"동해","mean":17.19,"monthly":[12.26,11.02,11.06,13.31,15.71,20.41,23.84,28.21,26.26,22.57,18.14,14.16],"n":40262},{"name":"부산 장안","lon":129.26,"lat":35.32,"sea":"동해","mean":17.21,"monthly":[13.02,12.6,12.91,13.88,15.37,17.61,19.48,22.15,24.28,22.0,17.79,14.83],"n":85721},{"name":"포항 월포","lon":129.4,"lat":36.28,"sea":"동해","mean":17.24,"monthly":[12.2,11.19,11.8,13.1,15.08,19.34,21.73,24.63,24.41,21.33,17.43,14.11],"n":86001},{"name":"남해 상주","lon":127.99,"lat":34.7,"sea":"남해","mean":17.29,"monthly":[9.55,8.77,9.85,13.06,16.38,20.43,24.42,26.65,25.46,22.28,17.81,13.1],"n":85397},{"name":"거제 일운","lon":128.7,"lat":34.83,"sea":"남해","mean":17.53,"monthly":[12.63,12.07,12.54,14.16,15.83,18.11,21.16,24.59,24.98,21.94,17.78,14.85],"n":85154},{"name":"거제 해금강","lon":128.65,"lat":34.72,"sea":"남해","mean":17.65,"monthly":[12.84,12.2,12.48,13.83,15.51,17.88,21.29,24.9,25.11,22.35,17.9,15.2],"n":83410},{"name":"장흥 회진","lon":126.87,"lat":34.42,"sea":"남해","mean":17.76,"monthly":[8.69,8.45,10.92,14.23,17.4,21.17,24.22,26.48,26.04,21.28,16.03,11.28],"n":63195},{"name":"울릉도","lon":130.9,"lat":37.48,"sea":"동해","mean":17.98,"monthly":[12.28,10.85,10.93,13.42,15.84,20.02,23.9,26.44,24.65,21.66,18.92,15.48],"n":65877},{"name":"추자도","lon":126.3,"lat":33.95,"sea":"제주","mean":18.02,"monthly":[13.61,12.05,11.77,13.08,15.23,19.28,24.65,27.03,25.62,21.78,17.06,15.03],"n":82621},{"name":"제주 김녕","lon":126.75,"lat":33.56,"sea":"제주","mean":19.22,"monthly":[15.29,14.41,14.43,15.65,16.93,19.53,24.77,27.59,25.64,22.8,19.75,16.89],"n":90032},{"name":"제주 용담","lon":126.49,"lat":33.51,"sea":"제주","mean":19.73,"monthly":[15.48,14.51,14.5,16.09,17.47,20.45,25.77,28.21,27.16,23.28,20.28,17.19],"n":81838},{"name":"제주 우도","lon":126.95,"lat":33.5,"sea":"제주","mean":19.9,"monthly":[15.91,14.62,14.45,15.72,17.33,19.84,24.49,27.41,25.66,23.28,20.37,17.82],"n":80609},{"name":"제주 협재","lon":126.24,"lat":33.39,"sea":"제주","mean":20.09,"monthly":[15.4,14.31,14.51,16.04,17.11,20.14,25.75,27.76,26.51,23.29,20.27,17.29],"n":74677},{"name":"제주 신산","lon":126.81,"lat":33.35,"sea":"제주","mean":20.11,"monthly":[16.13,15.05,14.86,15.87,17.6,20.49,24.45,27.88,26.75,24.37,20.81,18.14],"n":77025},{"name":"제주 영락","lon":126.22,"lat":33.3,"sea":"제주","mean":20.15,"monthly":[16.28,15.31,15.26,16.57,17.04,19.58,24.84,27.74,26.56,24.13,20.95,18.15],"n":81750},{"name":"서귀포 중문","lon":126.42,"lat":33.24,"sea":"제주","mean":20.19,"monthly":[15.51,14.32,14.52,16.05,17.39,20.65,25.01,27.79,26.69,24.36,20.96,17.97],"n":85059},{"name":"가파도","lon":126.27,"lat":33.17,"sea":"제주","mean":20.21,"monthly":[16.4,15.36,15.26,16.51,17.3,20.17,24.99,28.23,26.74,24.37,21.34,18.38],"n":82467}]}